[
    {
        "name":"下沙文化广场",
        "address":"广东省深圳市福田区东涌路下沙文化广场",
        "latitude":22.52579,
        "longitude":114.02604,
        "geohash":"22.52579,114.02604"
    },
    {
        "name":"上沙文化广场",
        "address":"广东省深圳市福田区上沙东村11巷12号",
        "latitude":22.52288,
        "longitude":114.03072,
        "geohash":"22.52288,114.03072"
    },
    {
        "name":"财富广场",
        "address":"广东省深圳市福田区香林路",
        "latitude":22.53765,
        "longitude":114.02627,
        "geohash":"22.53765,114.02627"
    },
    {
        "name":"下沙文化广场-游泳池",
        "address":"广东省深圳市福田区大围路下沙文化广场内(下沙文化广场伍人行篮球场对面)",
        "latitude":22.52581,
        "longitude":114.026,
        "geohash":"22.52581,114.026"
    },
    {
        "name":"下沙文化广场-侯王庙(大围路)",
        "address":"广东省深圳市福田区大围路与1路交叉口东100米",
        "latitude":22.52623,
        "longitude":114.02545,
        "geohash":"22.52623,114.02545"
    },
    {
        "name":"泰然广场",
        "address":"广东省深圳市福田区滨河大道9309",
        "latitude":22.52807,
        "longitude":114.02368,
        "geohash":"22.52807,114.02368"
    },
    {
        "name":"金谷广场",
        "address":"广东省深圳市福田区车公庙泰然九路泰然工贸园海松大厦西",
        "latitude":22.5306,
        "longitude":114.02321,
        "geohash":"22.5306,114.02321"
    },
    {
        "name":"下沙文化广场-黄思铭公世祠",
        "address":"广东省深圳市福田区祠堂后街与1路交叉口西南100米",
        "latitude":22.52607,
        "longitude":114.02581,
        "geohash":"22.52607,114.02581"
    },
    {
        "name":"泰然文化广场",
        "address":"广东省深圳市福田区泰然六路2旁",
        "latitude":22.53304,
        "longitude":114.02823,
        "geohash":"22.53304,114.02823"
    },
    {
        "name":"创新科技广场一期",
        "address":"广东省深圳市福田区车公庙泰然四路25号",
        "latitude":22.53365,
        "longitude":114.0309,
        "geohash":"22.53365,114.0309"
    }
]