[
  {
    "id":"13547868131165489705",
    "name":"A8音乐大厦",
    "address":"广东省深圳市南山区科园路1002",
    "short_address":"科园路1002",
    "latitude":22.52273,
    "longitude":113.93863,
    "city":"深圳市",
    "request_id":"7176762022595357913",
    "city_id":11,
    "geohash":"ws100sps6t0"
  },
  {
    "id":"15323071206542831385",
    "name":"AAA大厦",
    "address":"广东省深圳市龙华区人民路4225",
    "short_address":"人民路4225",
    "latitude":22.6542,
    "longitude":114.02182,
    "city":"深圳市",
    "request_id":"7176762022595357913",
    "city_id":11,
    "geohash":"ws10fsh4kbz"
  },
  {
    "id":"10693707737423189911",
    "name":"AAA大厦北座",
    "address":"广东省深圳市龙华区丰益路1",
    "short_address":"丰益路1",
    "latitude":22.65474,
    "longitude":114.02124,
    "city":"深圳市",
    "request_id":"7176762022595357913",
    "city_id":11,
    "geohash":"ws10fs5trmw"
  },
  {
    "id":"835819671747714752",
    "name":"APM商务大厦",
    "address":"广东省深圳市龙华区华园道34号",
    "short_address":"华园道34号",
    "latitude":22.6665,
    "longitude":114.03358,
    "city":"深圳市",
    "request_id":"7176762022595357913",
    "city_id":11,
    "geohash":"ws10fyk9zjb"
  },
  {
    "id":"11563887527988715233",
    "name":"AAA大厦东座",
    "address":"广东省深圳市龙华区人民路4225",
    "short_address":"人民路4225",
    "latitude":22.6542,
    "longitude":114.02182,
    "city":"深圳市",
    "request_id":"7176762022595357913",
    "city_id":11,
    "geohash":"ws10fsh4kbz"
  },
  {
    "id":"16099445635915355109",
    "name":"A one商务大厦",
    "address":"广东省深圳市龙华区腾龙路隔圳新村Aone商务大厦",
    "short_address":"腾龙路隔圳新村Aone商务大厦",
    "latitude":22.63426,
    "longitude":114.01822,
    "city":"深圳市",
    "request_id":"7176762022595357913",
    "city_id":11,
    "geohash":"ws10f83w15f"
  },
  {
    "id":"7782487480681167217",
    "name":"Aneo商务大厦",
    "address":"广东省深圳市龙华区民塘路北隔圳新村29栋",
    "short_address":"民塘路北隔圳新村29栋",
    "latitude":22.63422,
    "longitude":114.01836,
    "city":"深圳市",
    "request_id":"7176762022595357913",
    "city_id":11,
    "geohash":"ws10f83tuk7"
  },
  {
    "id":"14157838803038989756",
    "name":"ANGEL BABY",
    "address":"广东省深圳市福田区中航路华乐楼1楼",
    "short_address":"中航路华乐楼1楼",
    "latitude":22.54492,
    "longitude":114.08348,
    "city":"深圳市",
    "request_id":"7176762022595357913",
    "city_id":11,
    "geohash":"ws10k01j9v8"
  },
  {
    "id":"17691972527662881561",
    "name":"AIR GAME",
    "address":"广东省深圳市福田区金田路3038现代国际大厦4楼",
    "short_address":"金田路3038现代国际大厦4楼",
    "latitude":22.5343,
    "longitude":114.06378,
    "city":"深圳市",
    "request_id":"7176762022595357913",
    "city_id":11,
    "geohash":"ws105w4xy9y"
  },
  {
    "id":"10612220587738038567",
    "name":"AFLOAT造型",
    "address":"广东省深圳市罗湖区桂园街道深南东路5016京基百纳空间购物中心301A",
    "short_address":"桂园街道深南东路5016京基百纳空间购物中心301A",
    "latitude":22.54384,
    "longitude":114.10699,
    "city":"深圳市",
    "request_id":"7176762022595357913",
    "city_id":11,
    "geohash":"ws10hxfpms6"
  }
]